{
  "type": "FeatureCollection",
  "features": [
    {
      "type": "Feature",
      "properties": {
        "stop_id": "PB241",
        "stop_name": "PB241-Parada / Mall Plaza Norte - Los Libertadores"
      },
      "geometry": {
        "type": "Point",
        "coordinates": [
          -70.68134935187484,
          -33.36406795304759
        ]
      }
    },
    {
      "type": "Feature",
      "properties": {
        "stop_id": "PB184",
        "stop_name": "PB184-Los Libertadores / esq. Av. A. Vespucio"
      },
      "geometry": {
        "type": "Point",
        "coordinates": [
          -70.6809756518525,
          -33.366838567249324
        ]
      }
    },
    {
      "type": "Feature",
      "properties": {
        "stop_id": "PB185",
        "stop_name": "PB185-Parada / Pasarela Albany"
      },
      "geometry": {
        "type": "Point",
        "coordinates": [
          -70.68579700036199,
          -33.36608499997146
        ]
      }
    },
    {
      "type": "Feature",
      "properties": {
        "stop_id": "PB242",
        "stop_name": "PB242-Parada 6 / (M) Los Libertadores"
      },
      "geometry": {
        "type": "Point",
        "coordinates": [
          -70.68961833969425,
          -33.36634704966841
        ]
      }
    },
    {
      "type": "Feature",
      "properties": {
        "stop_id": "PB186",
        "stop_name": "PB186-Av. Independencia / esq. H. de Iquique"
      },
      "geometry": {
        "type": "Point",
        "coordinates": [
          -70.68868296631643,
          -33.369150240788
        ]
      }
    },
    {
      "type": "Feature",
      "properties": {
        "stop_id": "PB187",
        "stop_name": "PB187-Av. Independencia / esq. H. La Concepción"
      },
      "geometry": {
        "type": "Point",
        "coordinates": [
          -70.68771899990077,
          -33.371571000182705
        ]
      }
    },
    {
      "type": "Feature",
      "properties": {
        "stop_id": "PB188",
        "stop_name": "PB188-Parada 1 / (M) Cardenal Caro"
      },
      "geometry": {
        "type": "Point",
        "coordinates": [
          -70.68668568387274,
          -33.37339211329898
        ]
      }
    },
    {
      "type": "Feature",
      "properties": {
        "stop_id": "PB251",
        "stop_name": "PB251-Av. Independencia / esq. Trigal"
      },
      "geometry": {
        "type": "Point",
        "coordinates": [
          -70.68455289167436,
          -33.37676159621242
        ]
      }
    },
    {
      "type": "Feature",
      "properties": {
        "stop_id": "PB190",
        "stop_name": "PB190-Av. Independencia / esq. El Cortijo"
      },
      "geometry": {
        "type": "Point",
        "coordinates": [
          -70.68391099822847,
          -33.37822855492423
        ]
      }
    },
    {
      "type": "Feature",
      "properties": {
        "stop_id": "PB191",
        "stop_name": "PB191-Av. Independencia / esq. Quilicura"
      },
      "geometry": {
        "type": "Point",
        "coordinates": [
          -70.68299783530826,
          -33.381094506881965
        ]
      }
    },
    {
      "type": "Feature",
      "properties": {
        "stop_id": "PB2157",
        "stop_name": "PB2157-Quilicura / esq. Pasaje Cartagena"
      },
      "geometry": {
        "type": "Point",
        "coordinates": [
          -70.68524200088535,
          -33.38220287690242
        ]
      }
    },
    {
      "type": "Feature",
      "properties": {
        "stop_id": "PB842",
        "stop_name": "PB842-Barón de Juras R. / esq. Av. Las Industrias"
      },
      "geometry": {
        "type": "Point",
        "coordinates": [
          -70.68751099964197,
          -33.38375800023835
        ]
      }
    },
    {
      "type": "Feature",
      "properties": {
        "stop_id": "PB843",
        "stop_name": "PB843-Barón de Juras R. / esq. Nueva 1"
      },
      "geometry": {
        "type": "Point",
        "coordinates": [
          -70.68636386546862,
          -33.38597702332922
        ]
      }
    },
    {
      "type": "Feature",
      "properties": {
        "stop_id": "PB711",
        "stop_name": "PB711-Av. Los Zapadores / esq. Víctor González"
      },
      "geometry": {
        "type": "Point",
        "coordinates": [
          -70.68232899949865,
          -33.38722600027678
        ]
      }
    },
    {
      "type": "Feature",
      "properties": {
        "stop_id": "PB712",
        "stop_name": "PB712-Parada 3 / (M) Vivaceta"
      },
      "geometry": {
        "type": "Point",
        "coordinates": [
          -70.67968399994942,
          -33.38623600036294
        ]
      }
    },
    {
      "type": "Feature",
      "properties": {
        "stop_id": "PB2166",
        "stop_name": "PB2166-Av. Fermín Vivaceta / esq. Módulo Lunar"
      },
      "geometry": {
        "type": "Point",
        "coordinates": [
          -70.67843392007904,
          -33.38768807455097
        ]
      }
    },
    {
      "type": "Feature",
      "properties": {
        "stop_id": "PB2158",
        "stop_name": "PB2158-Av. Fermín Vivaceta / esq. El Olivo"
      },
      "geometry": {
        "type": "Point",
        "coordinates": [
          -70.67692600194577,
          -33.39139687595428
        ]
      }
    },
    {
      "type": "Feature",
      "properties": {
        "stop_id": "PB2159",
        "stop_name": "PB2159-Av. Fermín Vivaceta / esq. Teniente Bello"
      },
      "geometry": {
        "type": "Point",
        "coordinates": [
          -70.67621099600736,
          -33.39443687650066
        ]
      }
    },
    {
      "type": "Feature",
      "properties": {
        "stop_id": "PB2160",
        "stop_name": "PB2160-Av. Fermín Vivaceta / esq. Santa Inés"
      },
      "geometry": {
        "type": "Point",
        "coordinates": [
          -70.67460899877727,
          -33.396712880440155
        ]
      }
    },
    {
      "type": "Feature",
      "properties": {
        "stop_id": "PB2161",
        "stop_name": "PB2161-Av. Fermín Vivaceta / esq. Monterrey"
      },
      "geometry": {
        "type": "Point",
        "coordinates": [
          -70.67317199895872,
          -33.39801287312217
        ]
      }
    },
    {
      "type": "Feature",
      "properties": {
        "stop_id": "PB1604",
        "stop_name": "PB1604-Parada 5 / (M) Conchalí"
      },
      "geometry": {
        "type": "Point",
        "coordinates": [
          -70.67012182924948,
          -33.398370465152844
        ]
      }
    },
    {
      "type": "Feature",
      "properties": {
        "stop_id": "PB1967",
        "stop_name": "PB1967-Av. Independencia / esq. Pablo Urzúa"
      },
      "geometry": {
        "type": "Point",
        "coordinates": [
          -70.66595179804509,
          -33.40102847748711
        ]
      }
    },
    {
      "type": "Feature",
      "properties": {
        "stop_id": "PB1964",
        "stop_name": "PB1964-Parada 1 / Einstein - Independencia"
      },
      "geometry": {
        "type": "Point",
        "coordinates": [
          -70.66309249804111,
          -33.40413657725271
        ]
      }
    },
    {
      "type": "Feature",
      "properties": {
        "stop_id": "PB1960",
        "stop_name": "PB1960-Parada 6 / (M) Pza. Chacabuco"
      },
      "geometry": {
        "type": "Point",
        "coordinates": [
          -70.6607268980391,
          -33.40745247712754
        ]
      }
    },
    {
      "type": "Feature",
      "properties": {
        "stop_id": "PB1958",
        "stop_name": "PB1958-Av. Independencia / esq. Los Nidos"
      },
      "geometry": {
        "type": "Point",
        "coordinates": [
          -70.65968609804126,
          -33.41021837723809
        ]
      }
    },
    {
      "type": "Feature",
      "properties": {
        "stop_id": "PB1957",
        "stop_name": "PB1957-Av. Independencia / esq. Central"
      },
      "geometry": {
        "type": "Point",
        "coordinates": [
          -70.65849539803716,
          -33.41285247701497
        ]
      }
    },
    {
      "type": "Feature",
      "properties": {
        "stop_id": "PB1955",
        "stop_name": "PB1955-Av. Independencia / esq. San Luis"
      },
      "geometry": {
        "type": "Point",
        "coordinates": [
          -70.65700939803654,
          -33.41587267697416
        ]
      }
    },
    {
      "type": "Feature",
      "properties": {
        "stop_id": "PB1953",
        "stop_name": "PB1953-Parada 1 / (M) Hospitales"
      },
      "geometry": {
        "type": "Point",
        "coordinates": [
          -70.65633599804207,
          -33.41796327726443
        ]
      }
    },
    {
      "type": "Feature",
      "properties": {
        "stop_id": "PB1951",
        "stop_name": "PB1951-Parada 3 / Hospital Clínico U. de Chile"
      },
      "geometry": {
        "type": "Point",
        "coordinates": [
          -70.65562799805225,
          -33.42092737780349
        ]
      }
    },
    {
      "type": "Feature",
      "properties": {
        "stop_id": "PB1950",
        "stop_name": "PB1950-Av. Independencia / esq. Dávila Baeza"
      },
      "geometry": {
        "type": "Point",
        "coordinates": [
          -70.65453629804286,
          -33.425800777312176
        ]
      }
    },
    {
      "type": "Feature",
      "properties": {
        "stop_id": "PB1948",
        "stop_name": "PB1948-Av. Independencia / esq. General Prieto"
      },
      "geometry": {
        "type": "Point",
        "coordinates": [
          -70.65351439803767,
          -33.429639877038845
        ]
      }
    },
    {
      "type": "Feature",
      "properties": {
        "stop_id": "PA48",
        "stop_name": "PA48-Parada 1 / Estación Mapocho"
      },
      "geometry": {
        "type": "Point",
        "coordinates": [
          -70.65333930962234,
          -33.43259370405025
        ]
      }
    },
    {
      "type": "Feature",
      "properties": {
        "stop_id": "PA49",
        "stop_name": "PA49-Parada / Hospital Traumatológico"
      },
      "geometry": {
        "type": "Point",
        "coordinates": [
          -70.6587930624152,
          -33.43437346243524
        ]
      }
    },
    {
      "type": "Feature",
      "properties": {
        "stop_id": "PA50",
        "stop_name": "PA50-Parada 1 / Teatro Teletón"
      },
      "geometry": {
        "type": "Point",
        "coordinates": [
          -70.65860443334246,
          -33.435669563648105
        ]
      }
    },
    {
      "type": "Feature",
      "properties": {
        "stop_id": "PA51",
        "stop_name": "PA51-Parada 3 / (M) Santa Ana"
      },
      "geometry": {
        "type": "Point",
        "coordinates": [
          -70.65824508065917,
          -33.438587354529275
        ]
      }
    },
    {
      "type": "Feature",
      "properties": {
        "stop_id": "PA52",
        "stop_name": "PA52-San Martín / esq. Moneda"
      },
      "geometry": {
        "type": "Point",
        "coordinates": [
          -70.65780838105906,
          -33.441980898113535
        ]
      }
    },
    {
      "type": "Feature",
      "properties": {
        "stop_id": "PA53",
        "stop_name": "PA53-Parada 1 / (M) La Moneda"
      },
      "geometry": {
        "type": "Point",
        "coordinates": [
          -70.65746805887119,
          -33.44472979297956
        ]
      }
    },
    {
      "type": "Feature",
      "properties": {
        "stop_id": "PA30",
        "stop_name": "PA30-San Ignacio / esq. Padre M. de Olivares"
      },
      "geometry": {
        "type": "Point",
        "coordinates": [
          -70.65684866878162,
          -33.448815845420114
        ]
      }
    },
    {
      "type": "Feature",
      "properties": {
        "stop_id": "PA31",
        "stop_name": "PA31-Parada / Palacio Cousiño"
      },
      "geometry": {
        "type": "Point",
        "coordinates": [
          -70.65632394097427,
          -33.45148890277035
        ]
      }
    },
    {
      "type": "Feature",
      "properties": {
        "stop_id": "PA54",
        "stop_name": "PA54-Santa Isabel / esq. Lord Cochrane"
      },
      "geometry": {
        "type": "Point",
        "coordinates": [
          -70.65465273448852,
          -33.452987702300625
        ]
      }
    },
    {
      "type": "Feature",
      "properties": {
        "stop_id": "PA55",
        "stop_name": "PA55-Nataniel Cox / esq. Av. 10 de Julio"
      },
      "geometry": {
        "type": "Point",
        "coordinates": [
          -70.65263268743733,
          -33.454152842002635
        ]
      }
    },
    {
      "type": "Feature",
      "properties": {
        "stop_id": "PA627",
        "stop_name": "PA627-Nataniel Cox / esq. Copiapó"
      },
      "geometry": {
        "type": "Point",
        "coordinates": [
          -70.65238600033302,
          -33.45554099973011
        ]
      }
    },
    {
      "type": "Feature",
      "properties": {
        "stop_id": "PA56",
        "stop_name": "PA56-Nataniel Cox / esq. Aconcagua"
      },
      "geometry": {
        "type": "Point",
        "coordinates": [
          -70.65206127683757,
          -33.457753575980284
        ]
      }
    },
    {
      "type": "Feature",
      "properties": {
        "stop_id": "PA57",
        "stop_name": "PA57-Nataniel Cox / esq. Av. Manuel A. Matta"
      },
      "geometry": {
        "type": "Point",
        "coordinates": [
          -70.65179899769592,
          -33.45956939324083
        ]
      }
    },
    {
      "type": "Feature",
      "properties": {
        "stop_id": "PA58",
        "stop_name": "PA58-Parada / Colegio Santa Cruz"
      },
      "geometry": {
        "type": "Point",
        "coordinates": [
          -70.6511339669437,
          -33.463728172245936
        ]
      }
    },
    {
      "type": "Feature",
      "properties": {
        "stop_id": "PA694",
        "stop_name": "PA694-Nataniel Cox / esq. Pedro Lagos"
      },
      "geometry": {
        "type": "Point",
        "coordinates": [
          -70.6507990000226,
          -33.46589800020265
        ]
      }
    },
    {
      "type": "Feature",
      "properties": {
        "stop_id": "PA60",
        "stop_name": "PA60-Nataniel Cox / esq. Ñuble"
      },
      "geometry": {
        "type": "Point",
        "coordinates": [
          -70.650202685745,
          -33.46970964717074
        ]
      }
    },
    {
      "type": "Feature",
      "properties": {
        "stop_id": "PA61",
        "stop_name": "PA61-Nataniel Cox / esq. Franklin"
      },
      "geometry": {
        "type": "Point",
        "coordinates": [
          -70.64966183475619,
          -33.47316000344159
        ]
      }
    },
    {
      "type": "Feature",
      "properties": {
        "stop_id": "PA62",
        "stop_name": "PA62-Parada 1 / (M) Franklin"
      },
      "geometry": {
        "type": "Point",
        "coordinates": [
          -70.648415299664,
          -33.47529082187331
        ]
      }
    },
    {
      "type": "Feature",
      "properties": {
        "stop_id": "PH110",
        "stop_name": "PH110-Parada 1 / Paradero 3 Gran Avenida"
      },
      "geometry": {
        "type": "Point",
        "coordinates": [
          -70.64834895398624,
          -33.47933285553883
        ]
      }
    },
    {
      "type": "Feature",
      "properties": {
        "stop_id": "PH111",
        "stop_name": "PH111-Parada 1 / Hospital Barros Luco"
      },
      "geometry": {
        "type": "Point",
        "coordinates": [
          -70.6495300002624,
          -33.483511999937
        ]
      }
    },
    {
      "type": "Feature",
      "properties": {
        "stop_id": "PH112",
        "stop_name": "PH112-Parada 3 / Muni.San Miguel"
      },
      "geometry": {
        "type": "Point",
        "coordinates": [
          -70.65008100025365,
          -33.485470000326586
        ]
      }
    },
    {
      "type": "Feature",
      "properties": {
        "stop_id": "PH113",
        "stop_name": "PH113-Parada 1 / Paradero 8 Gran Avenida"
      },
      "geometry": {
        "type": "Point",
        "coordinates": [
          -70.65116900017871,
          -33.48944699963518
        ]
      }
    },
    {
      "type": "Feature",
      "properties": {
        "stop_id": "PH114",
        "stop_name": "PH114-Parada / Paradero 9 Gran Avenida"
      },
      "geometry": {
        "type": "Point",
        "coordinates": [
          -70.65176399957913,
          -33.49177899965368
        ]
      }
    },
    {
      "type": "Feature",
      "properties": {
        "stop_id": "PH115",
        "stop_name": "PH115-Parada / Paradero 9 1/2 Gran Avenida"
      },
      "geometry": {
        "type": "Point",
        "coordinates": [
          -70.65259500001629,
          -33.494890999867465
        ]
      }
    },
    {
      "type": "Feature",
      "properties": {
        "stop_id": "PH792",
        "stop_name": "PH792-Parada 3 / Paradero 10 Gran Avenida"
      },
      "geometry": {
        "type": "Point",
        "coordinates": [
          -70.65344300044329,
          -33.49790800034059
        ]
      }
    },
    {
      "type": "Feature",
      "properties": {
        "stop_id": "PH118",
        "stop_name": "PH118-Parada / Colegio Chile"
      },
      "geometry": {
        "type": "Point",
        "coordinates": [
          -70.65445133527899,
          -33.50140000622756
        ]
      }
    },
    {
      "type": "Feature",
      "properties": {
        "stop_id": "PH119",
        "stop_name": "PH119-Parada 3 / (M) Departamental"
      },
      "geometry": {
        "type": "Point",
        "coordinates": [
          -70.6552049996338,
          -33.50398499978142
        ]
      }
    },
    {
      "type": "Feature",
      "properties": {
        "stop_id": "PH120",
        "stop_name": "PH120-Parada / Paradero 13 Gran Avenida"
      },
      "geometry": {
        "type": "Point",
        "coordinates": [
          -70.65577200048469,
          -33.50602399974725
        ]
      }
    },
    {
      "type": "Feature",
      "properties": {
        "stop_id": "PH121",
        "stop_name": "PH121-Parada / Paradero 14 Gran Avenida"
      },
      "geometry": {
        "type": "Point",
        "coordinates": [
          -70.65643899977707,
          -33.5083760000999
        ]
      }
    },
    {
      "type": "Feature",
      "properties": {
        "stop_id": "PH122",
        "stop_name": "PH122-Parada / Paradero 15 Gran Avenida"
      },
      "geometry": {
        "type": "Point",
        "coordinates": [
          -70.65758860761318,
          -33.51241360199905
        ]
      }
    },
    {
      "type": "Feature",
      "properties": {
        "stop_id": "PH123",
        "stop_name": "PH123-Parada 1 / Paradero 17 Gran Avenida"
      },
      "geometry": {
        "type": "Point",
        "coordinates": [
          -70.65809989354807,
          -33.51433880569196
        ]
      }
    },
    {
      "type": "Feature",
      "properties": {
        "stop_id": "PG1",
        "stop_name": "PG1-Parada / (M) Lo Ovalle"
      },
      "geometry": {
        "type": "Point",
        "coordinates": [
          -70.65927306467083,
          -33.51843220899494
        ]
      }
    },
    {
      "type": "Feature",
      "properties": {
        "stop_id": "PG2",
        "stop_name": "PG2-Parada 1 / Paradero 19 Gran Avenida"
      },
      "geometry": {
        "type": "Point",
        "coordinates": [
          -70.65981662511585,
          -33.52034632877076
        ]
      }
    },
    {
      "type": "Feature",
      "properties": {
        "stop_id": "PG3",
        "stop_name": "PG3-Parada 1 / Paradero 2 Gran Avenida"
      },
      "geometry": {
        "type": "Point",
        "coordinates": [
          -70.66083096045132,
          -33.523962918656814
        ]
      }
    },
    {
      "type": "Feature",
      "properties": {
        "stop_id": "PG4",
        "stop_name": "PG4-Parada 1 / (M) El Parrón"
      },
      "geometry": {
        "type": "Point",
        "coordinates": [
          -70.66149399981524,
          -33.52622399963417
        ]
      }
    },
    {
      "type": "Feature",
      "properties": {
        "stop_id": "PG5",
        "stop_name": "PG5-Parada 1 / Paradero 22 Gran Avenida"
      },
      "geometry": {
        "type": "Point",
        "coordinates": [
          -70.66215760351506,
          -33.52877420074801
        ]
      }
    },
    {
      "type": "Feature",
      "properties": {
        "stop_id": "PG6",
        "stop_name": "PG6-Parada / Iglesia Don Bosco"
      },
      "geometry": {
        "type": "Point",
        "coordinates": [
          -70.66282581201777,
          -33.53127211002202
        ]
      }
    },
    {
      "type": "Feature",
      "properties": {
        "stop_id": "PG7",
        "stop_name": "PG7-Parada / Muni.La Cisterna"
      },
      "geometry": {
        "type": "Point",
        "coordinates": [
          -70.66357999957539,
          -33.53405299965788
        ]
      }
    },
    {
      "type": "Feature",
      "properties": {
        "stop_id": "PG8",
        "stop_name": "PG8-Parada 9 / (M) La Cisterna"
      },
      "geometry": {
        "type": "Point",
        "coordinates": [
          -70.66459300019265,
          -33.53786300031094
        ]
      }
    },
    {
      "type": "Feature",
      "properties": {
        "stop_id": "PG9",
        "stop_name": "PG9-Parada 1 / Paradero 27 Gran Avenida"
      },
      "geometry": {
        "type": "Point",
        "coordinates": [
          -70.66604899987205,
          -33.54264799991496
        ]
      }
    },
    {
      "type": "Feature",
      "properties": {
        "stop_id": "PG10",
        "stop_name": "PG10-Parada 1 / Paradero 28 Gran Avenida"
      },
      "geometry": {
        "type": "Point",
        "coordinates": [
          -70.66884200041639,
          -33.5461459995833
        ]
      }
    },
    {
      "type": "Feature",
      "properties": {
        "stop_id": "PG11",
        "stop_name": "PG11-Parada / Paradero 29 Gran Avenida"
      },
      "geometry": {
        "type": "Point",
        "coordinates": [
          -70.6710056158647,
          -33.54886897602174
        ]
      }
    },
    {
      "type": "Feature",
      "properties": {
        "stop_id": "PG12",
        "stop_name": "PG12-Parada 1 / Paradero 3 - Gran Avenida"
      },
      "geometry": {
        "type": "Point",
        "coordinates": [
          -70.67251300024833,
          -33.55079500013101
        ]
      }
    },
    {
      "type": "Feature",
      "properties": {
        "stop_id": "PG13",
        "stop_name": "PG13-Parada 1 / Paradero 31 Gran Avenida"
      },
      "geometry": {
        "type": "Point",
        "coordinates": [
          -70.67496221118469,
          -33.553899074493714
        ]
      }
    },
    {
      "type": "Feature",
      "properties": {
        "stop_id": "PG14",
        "stop_name": "PG14-Parada / Paradero 32 Gran Avenida"
      },
      "geometry": {
        "type": "Point",
        "coordinates": [
          -70.67662899953726,
          -33.556044000393285
        ]
      }
    },
    {
      "type": "Feature",
      "properties": {
        "stop_id": "PG15",
        "stop_name": "PG15-Gran Avenida / esq. Lo Espina"
      },
      "geometry": {
        "type": "Point",
        "coordinates": [
          -70.67835974674139,
          -33.55825241786634
        ]
      }
    },
    {
      "type": "Feature",
      "properties": {
        "stop_id": "PG16",
        "stop_name": "PG16-Parada / Paradero 33 Gran Avenida"
      },
      "geometry": {
        "type": "Point",
        "coordinates": [
          -70.67930387005384,
          -33.55946056468151
        ]
      }
    },
    {
      "type": "Feature",
      "properties": {
        "stop_id": "PG17",
        "stop_name": "PG17-Parada / Escuela de Aviación"
      },
      "geometry": {
        "type": "Point",
        "coordinates": [
          -70.68098999971356,
          -33.56160399963546
        ]
      }
    },
    {
      "type": "Feature",
      "properties": {
        "stop_id": "PG18",
        "stop_name": "PG18-Parada / Paradero 35 Gran Avenida"
      },
      "geometry": {
        "type": "Point",
        "coordinates": [
          -70.68268999953911,
          -33.563728999936046
        ]
      }
    },
    {
      "type": "Feature",
      "properties": {
        "stop_id": "PG19",
        "stop_name": "PG19-Parada / Paradero 36 Gran Avenida"
      },
      "geometry": {
        "type": "Point",
        "coordinates": [
          -70.68462499988442,
          -33.56609300016246
        ]
      }
    },
    {
      "type": "Feature",
      "properties": {
        "stop_id": "PG20",
        "stop_name": "PG20-Parada 1 / Paradero 36 1/2 Gran Avenida"
      },
      "geometry": {
        "type": "Point",
        "coordinates": [
          -70.68628200030797,
          -33.56811000003809
        ]
      }
    },
    {
      "type": "Feature",
      "properties": {
        "stop_id": "PG21",
        "stop_name": "PG21-Parada / Paradero 37 Gran Avenida"
      },
      "geometry": {
        "type": "Point",
        "coordinates": [
          -70.68834200026981,
          -33.57089999964437
        ]
      }
    },
    {
      "type": "Feature",
      "properties": {
        "stop_id": "PG22",
        "stop_name": "PG22-Parada / Paradero 38 Gran Avenida"
      },
      "geometry": {
        "type": "Point",
        "coordinates": [
          -70.69036731512308,
          -33.5736827799105
        ]
      }
    },
    {
      "type": "Feature",
      "properties": {
        "stop_id": "PG23",
        "stop_name": "PG23-Parada 1 / Paradero 39 Gran Avenida"
      },
      "geometry": {
        "type": "Point",
        "coordinates": [
          -70.69199723919947,
          -33.5759149135444
        ]
      }
    },
    {
      "type": "Feature",
      "properties": {
        "stop_id": "PG24",
        "stop_name": "PG24-Parada / Paradero 4 Gran Avenida"
      },
      "geometry": {
        "type": "Point",
        "coordinates": [
          -70.69392599964019,
          -33.57856199972882
        ]
      }
    },
    {
      "type": "Feature",
      "properties": {
        "stop_id": "PG25",
        "stop_name": "PG25-Parada 1 / Paradero 41 Gran Avenida"
      },
      "geometry": {
        "type": "Point",
        "coordinates": [
          -70.69676000024542,
          -33.58238499999623
        ]
      }
    },
    {
      "type": "Feature",
      "properties": {
        "stop_id": "PG26",
        "stop_name": "PG26-Parada 2 / Est.Freire"
      },
      "geometry": {
        "type": "Point",
        "coordinates": [
          -70.70027599993811,
          -33.58569600026684
        ]
      }
    },
    {
      "type": "Feature",
      "properties": {
        "stop_id": "PG27",
        "stop_name": "PG27-Av.José M. Balmaceda / esq. Urmeneta"
      },
      "geometry": {
        "type": "Point",
        "coordinates": [
          -70.70386589008004,
          -33.5851778123671
        ]
      }
    },
    {
      "type": "Feature",
      "properties": {
        "stop_id": "PG28",
        "stop_name": "PG28-Urmeneta / esq. 12 de Febrero"
      },
      "geometry": {
        "type": "Point",
        "coordinates": [
          -70.70460200012916,
          -33.58650100004417
        ]
      }
    },
    {
      "type": "Feature",
      "properties": {
        "stop_id": "PG29",
        "stop_name": "PG29-Urmeneta / esq. Av. Colón-Norte"
      },
      "geometry": {
        "type": "Point",
        "coordinates": [
          -70.70556876693055,
          -33.58908915540463
        ]
      }
    },
    {
      "type": "Feature",
      "properties": {
        "stop_id": "PG30",
        "stop_name": "PG30-Urmeneta / esq. Covadonga"
      },
      "geometry": {
        "type": "Point",
        "coordinates": [
          -70.70715299978738,
          -33.59345200039768
        ]
      }
    },
    {
      "type": "Feature",
      "properties": {
        "stop_id": "PG31",
        "stop_name": "PG31-San José / esq. Eyzaguirre"
      },
      "geometry": {
        "type": "Point",
        "coordinates": [
          -70.70692700037142,
          -33.596156999652415
        ]
      }
    },
    {
      "type": "Feature",
      "properties": {
        "stop_id": "PG32",
        "stop_name": "PG32-San José / esq. Bulnes"
      },
      "geometry": {
        "type": "Point",
        "coordinates": [
          -70.70260801231068,
          -33.59679511566821
        ]
      }
    },
    {
      "type": "Feature",
      "properties": {
        "stop_id": "PG1204",
        "stop_name": "PG1204-San José / esq. San Martín"
      },
      "geometry": {
        "type": "Point",
        "coordinates": [
          -70.69546100026373,
          -33.598531037740734
        ]
      }
    },
    {
      "type": "Feature",
      "properties": {
        "stop_id": "PG1580",
        "stop_name": "PG1580-José Besa / esq. Antonio Varas"
      },
      "geometry": {
        "type": "Point",
        "coordinates": [
          -70.69384099978694,
          -33.5982250002512
        ]
      }
    },
    {
      "type": "Feature",
      "properties": {
        "stop_id": "PG1581",
        "stop_name": "PG1581-José Besa / esq. San José"
      },
      "geometry": {
        "type": "Point",
        "coordinates": [
          -70.69425699950398,
          -33.59870200042331
        ]
      }
    },
    {
      "type": "Feature",
      "properties": {
        "stop_id": "PG1219",
        "stop_name": "PG1219-San José / esq. José Besa"
      },
      "geometry": {
        "type": "Point",
        "coordinates": [
          -70.69396944265925,
          -33.598985987358354
        ]
      }
    },
    {
      "type": "Feature",
      "properties": {
        "stop_id": "PG529",
        "stop_name": "PG529-José Joaquín Pérez / esq. San José"
      },
      "geometry": {
        "type": "Point",
        "coordinates": [
          -70.70110153591828,
          -33.5968771808611
        ]
      }
    },
    {
      "type": "Feature",
      "properties": {
        "stop_id": "PG36",
        "stop_name": "PG36-Esmeralda / esq. Bulnes"
      },
      "geometry": {
        "type": "Point",
        "coordinates": [
          -70.70261497771612,
          -33.59821886002907
        ]
      }
    },
    {
      "type": "Feature",
      "properties": {
        "stop_id": "PG37",
        "stop_name": "PG37-Freire / esq. San José"
      },
      "geometry": {
        "type": "Point",
        "coordinates": [
          -70.70526300011875,
          -33.59674999965336
        ]
      }
    },
    {
      "type": "Feature",
      "properties": {
        "stop_id": "PG1599",
        "stop_name": "PG1599-Parada 2 / Plaza de San Bernardo"
      },
      "geometry": {
        "type": "Point",
        "coordinates": [
          -70.70368891412888,
          -33.59224860710772
        ]
      }
    },
    {
      "type": "Feature",
      "properties": {
        "stop_id": "PG40",
        "stop_name": "PG40-Freire / esq. 12 de Febrero"
      },
      "geometry": {
        "type": "Point",
        "coordinates": [
          -70.70086731018979,
          -33.58807136797971
        ]
      }
    },
    {
      "type": "Feature",
      "properties": {
        "stop_id": "PG41",
        "stop_name": "PG41-Parada 1 / Est.Freire"
      },
      "geometry": {
        "type": "Point",
        "coordinates": [
          -70.6992459996085,
          -33.58620399956911
        ]
      }
    },
    {
      "type": "Feature",
      "properties": {
        "stop_id": "PG43",
        "stop_name": "PG43-Parada 2 / Paradero 41 Gran Avenida"
      },
      "geometry": {
        "type": "Point",
        "coordinates": [
          -70.69623699946581,
          -33.58211199984501
        ]
      }
    },
    {
      "type": "Feature",
      "properties": {
        "stop_id": "PG44",
        "stop_name": "PG44-Parada / Paradero 4 Gran Avenida"
      },
      "geometry": {
        "type": "Point",
        "coordinates": [
          -70.69441693656064,
          -33.5796831570053
        ]
      }
    },
    {
      "type": "Feature",
      "properties": {
        "stop_id": "PG45",
        "stop_name": "PG45-Parada 2 / Paradero 39 Gran Avenida"
      },
      "geometry": {
        "type": "Point",
        "coordinates": [
          -70.69236500013533,
          -33.57684500019521
        ]
      }
    },
    {
      "type": "Feature",
      "properties": {
        "stop_id": "PG46",
        "stop_name": "PG46-Parada / Paradero 38 Gran Avenida"
      },
      "geometry": {
        "type": "Point",
        "coordinates": [
          -70.69062999963158,
          -33.57447400036711
        ]
      }
    },
    {
      "type": "Feature",
      "properties": {
        "stop_id": "PG47",
        "stop_name": "PG47-Parada / Paradero 37 Gran Avenida"
      },
      "geometry": {
        "type": "Point",
        "coordinates": [
          -70.68865148281823,
          -33.57179781616371
        ]
      }
    },
    {
      "type": "Feature",
      "properties": {
        "stop_id": "PG48",
        "stop_name": "PG48-Parada 2 / Paradero 36 1/2 Gran Avenida"
      },
      "geometry": {
        "type": "Point",
        "coordinates": [
          -70.68641901750358,
          -33.5686850409836
        ]
      }
    },
    {
      "type": "Feature",
      "properties": {
        "stop_id": "PG49",
        "stop_name": "PG49-Parada / Paradero 36 Gran Avenida"
      },
      "geometry": {
        "type": "Point",
        "coordinates": [
          -70.68456900023054,
          -33.56642099967052
        ]
      }
    },
    {
      "type": "Feature",
      "properties": {
        "stop_id": "PG50",
        "stop_name": "PG50-Parada / Paradero 35 Gran Avenida"
      },
      "geometry": {
        "type": "Point",
        "coordinates": [
          -70.68278700022299,
          -33.564228999848446
        ]
      }
    },
    {
      "type": "Feature",
      "properties": {
        "stop_id": "PG51",
        "stop_name": "PG51-Parada / Escuela de Aviación"
      },
      "geometry": {
        "type": "Point",
        "coordinates": [
          -70.68072786462596,
          -33.561628038940434
        ]
      }
    },
    {
      "type": "Feature",
      "properties": {
        "stop_id": "PG52",
        "stop_name": "PG52-Parada / Paradero 33 Gran Avenida"
      },
      "geometry": {
        "type": "Point",
        "coordinates": [
          -70.67884700004976,
          -33.559228000221346
        ]
      }
    },
    {
      "type": "Feature",
      "properties": {
        "stop_id": "PG53",
        "stop_name": "PG53-Gran Avenida / esq. Los Treboles"
      },
      "geometry": {
        "type": "Point",
        "coordinates": [
          -70.67757400022208,
          -33.557609999625136
        ]
      }
    },
    {
      "type": "Feature",
      "properties": {
        "stop_id": "PG54",
        "stop_name": "PG54-Parada / Paradero 32 Gran Avenida"
      },
      "geometry": {
        "type": "Point",
        "coordinates": [
          -70.67608199981339,
          -33.55572300025028
        ]
      }
    },
    {
      "type": "Feature",
      "properties": {
        "stop_id": "PG55",
        "stop_name": "PG55-Parada 2 / Paradero 31 Gran Avenida"
      },
      "geometry": {
        "type": "Point",
        "coordinates": [
          -70.67454299979852,
          -33.553769999756014
        ]
      }
    },
    {
      "type": "Feature",
      "properties": {
        "stop_id": "PG56",
        "stop_name": "PG56-Parada 2 / Paradero 30 Gran Avenida"
      },
      "geometry": {
        "type": "Point",
        "coordinates": [
          -70.67262391099709,
          -33.551345109750265
        ]
      }
    },
    {
      "type": "Feature",
      "properties": {
        "stop_id": "PG57",
        "stop_name": "PG57-Parada / Paradero 29 Gran Avenida"
      },
      "geometry": {
        "type": "Point",
        "coordinates": [
          -70.6709739997181,
          -33.54922499998189
        ]
      }
    },
    {
      "type": "Feature",
      "properties": {
        "stop_id": "PG58",
        "stop_name": "PG58-Parada 2 / Paradero 28 Gran Avenida"
      },
      "geometry": {
        "type": "Point",
        "coordinates": [
          -70.66833100053506,
          -33.54589700030827
        ]
      }
    },
    {
      "type": "Feature",
      "properties": {
        "stop_id": "PG59",
        "stop_name": "PG59-Parada 2 / Paradero 27 Gran Avenida"
      },
      "geometry": {
        "type": "Point",
        "coordinates": [
          -70.66608600030355,
          -33.543070999711574
        ]
      }
    },
    {
      "type": "Feature",
      "properties": {
        "stop_id": "PG61",
        "stop_name": "PG61-Parada 8 / (M) La Cisterna"
      },
      "geometry": {
        "type": "Point",
        "coordinates": [
          -70.66445399996816,
          -33.537934000130335
        ]
      }
    },
    {
      "type": "Feature",
      "properties": {
        "stop_id": "PG62",
        "stop_name": "PG62-Parada / Paradero 23 Gran Avenida"
      },
      "geometry": {
        "type": "Point",
        "coordinates": [
          -70.66317420197923,
          -33.533456921913285
        ]
      }
    },
    {
      "type": "Feature",
      "properties": {
        "stop_id": "PG63",
        "stop_name": "PG63-Parada / Iglesia Don Bosco"
      },
      "geometry": {
        "type": "Point",
        "coordinates": [
          -70.66282600005546,
          -33.53219200018192
        ]
      }
    },
    {
      "type": "Feature",
      "properties": {
        "stop_id": "PG64",
        "stop_name": "PG64-Parada 2 / Paradero 22 Gran Avenida"
      },
      "geometry": {
        "type": "Point",
        "coordinates": [
          -70.66208214901543,
          -33.529541118820525
        ]
      }
    },
    {
      "type": "Feature",
      "properties": {
        "stop_id": "PG65",
        "stop_name": "PG65-Parada 2 / (M) El Parrón"
      },
      "geometry": {
        "type": "Point",
        "coordinates": [
          -70.6613820000327,
          -33.52687400016205
        ]
      }
    },
    {
      "type": "Feature",
      "properties": {
        "stop_id": "PG66",
        "stop_name": "PG66-Parada 2 / Paradero 2 Gran Avenida"
      },
      "geometry": {
        "type": "Point",
        "coordinates": [
          -70.66069099957345,
          -33.52435300002465
        ]
      }
    },
    {
      "type": "Feature",
      "properties": {
        "stop_id": "PG67",
        "stop_name": "PG67-Parada 2 / Paradero 19 Gran Avenida"
      },
      "geometry": {
        "type": "Point",
        "coordinates": [
          -70.65966117790671,
          -33.52082664386084
        ]
      }
    },
    {
      "type": "Feature",
      "properties": {
        "stop_id": "PG68",
        "stop_name": "PG68-Parada / (M) Lo Ovalle"
      },
      "geometry": {
        "type": "Point",
        "coordinates": [
          -70.65910683509665,
          -33.51884403996107
        ]
      }
    },
    {
      "type": "Feature",
      "properties": {
        "stop_id": "PG69",
        "stop_name": "PG69-Parada 2 / Paradero 17 Gran Avenida"
      },
      "geometry": {
        "type": "Point",
        "coordinates": [
          -70.65800076319582,
          -33.51501153375244
        ]
      }
    },
    {
      "type": "Feature",
      "properties": {
        "stop_id": "PH124",
        "stop_name": "PH124-Parada / Paradero 15 Gran Avenida"
      },
      "geometry": {
        "type": "Point",
        "coordinates": [
          -70.65703370440805,
          -33.51158161807852
        ]
      }
    },
    {
      "type": "Feature",
      "properties": {
        "stop_id": "PH125",
        "stop_name": "PH125-Parada / Paradero 14 Gran Avenida"
      },
      "geometry": {
        "type": "Point",
        "coordinates": [
          -70.6561249998865,
          -33.50826899979023
        ]
      }
    },
    {
      "type": "Feature",
      "properties": {
        "stop_id": "PH126",
        "stop_name": "PH126-Parada / Paradero 13 Gran Avenida"
      },
      "geometry": {
        "type": "Point",
        "coordinates": [
          -70.65533993405889,
          -33.50546652299876
        ]
      }
    },
    {
      "type": "Feature",
      "properties": {
        "stop_id": "PH127",
        "stop_name": "PH127-Parada 2 / (M) Departamental"
      },
      "geometry": {
        "type": "Point",
        "coordinates": [
          -70.65490100046128,
          -33.50389699980507
        ]
      }
    },
    {
      "type": "Feature",
      "properties": {
        "stop_id": "PH128",
        "stop_name": "PH128-Parada / Colegio Chile"
      },
      "geometry": {
        "type": "Point",
        "coordinates": [
          -70.65407748360596,
          -33.501150776755736
        ]
      }
    },
    {
      "type": "Feature",
      "properties": {
        "stop_id": "PH129",
        "stop_name": "PH129-Parada 2 / Paradero 11 Gran Avenida"
      },
      "geometry": {
        "type": "Point",
        "coordinates": [
          -70.65333699966317,
          -33.49850399968732
        ]
      }
    },
    {
      "type": "Feature",
      "properties": {
        "stop_id": "PH130",
        "stop_name": "PH130-Parada / Paradero 9 1/2 Gran Avenida"
      },
      "geometry": {
        "type": "Point",
        "coordinates": [
          -70.6524330004783,
          -33.49530799989544
        ]
      }
    },
    {
      "type": "Feature",
      "properties": {
        "stop_id": "PH131",
        "stop_name": "PH131-Parada / Paradero 9 Gran Avenida"
      },
      "geometry": {
        "type": "Point",
        "coordinates": [
          -70.65177800047628,
          -33.49295199962851
        ]
      }
    },
    {
      "type": "Feature",
      "properties": {
        "stop_id": "PH132",
        "stop_name": "PH132-Parada 2 / Paradero 8 Gran Avenida"
      },
      "geometry": {
        "type": "Point",
        "coordinates": [
          -70.65111897118982,
          -33.4902844958553
        ]
      }
    },
    {
      "type": "Feature",
      "properties": {
        "stop_id": "PH133",
        "stop_name": "PH133-Parada 2 / Muni.San Miguel"
      },
      "geometry": {
        "type": "Point",
        "coordinates": [
          -70.65021900026137,
          -33.487012000147544
        ]
      }
    },
    {
      "type": "Feature",
      "properties": {
        "stop_id": "PH134",
        "stop_name": "PH134-Parada 2 / Hospital Barros Luco"
      },
      "geometry": {
        "type": "Point",
        "coordinates": [
          -70.64957099982728,
          -33.484614000426774
        ]
      }
    },
    {
      "type": "Feature",
      "properties": {
        "stop_id": "PH135",
        "stop_name": "PH135-Parada 2 / Paradero 3 Gran Avenida"
      },
      "geometry": {
        "type": "Point",
        "coordinates": [
          -70.64819499947107,
          -33.47991000009494
        ]
      }
    },
    {
      "type": "Feature",
      "properties": {
        "stop_id": "PA63",
        "stop_name": "PA63-Parada 2 / (M) Franklin"
      },
      "geometry": {
        "type": "Point",
        "coordinates": [
          -70.6481328397715,
          -33.47587715566639
        ]
      }
    },
    {
      "type": "Feature",
      "properties": {
        "stop_id": "PA64",
        "stop_name": "PA64-San Diego / esq. Schiavett"
      },
      "geometry": {
        "type": "Point",
        "coordinates": [
          -70.64829289435991,
          -33.4729754132312
        ]
      }
    },
    {
      "type": "Feature",
      "properties": {
        "stop_id": "PA65",
        "stop_name": "PA65-San Diego / esq. Ñuble"
      },
      "geometry": {
        "type": "Point",
        "coordinates": [
          -70.64845235517075,
          -33.46992935881823
        ]
      }
    },
    {
      "type": "Feature",
      "properties": {
        "stop_id": "PA66",
        "stop_name": "PA66-Parada / Liceo Barros Borgoño"
      },
      "geometry": {
        "type": "Point",
        "coordinates": [
          -70.6486738562294,
          -33.46632994453218
        ]
      }
    },
    {
      "type": "Feature",
      "properties": {
        "stop_id": "PA67",
        "stop_name": "PA67-San Diego / esq. Santiago"
      },
      "geometry": {
        "type": "Point",
        "coordinates": [
          -70.64884817551939,
          -33.46292712209423
        ]
      }
    },
    {
      "type": "Feature",
      "properties": {
        "stop_id": "PA68",
        "stop_name": "PA68-San Diego / esq. Av. Manuel A. Matta"
      },
      "geometry": {
        "type": "Point",
        "coordinates": [
          -70.64904461968176,
          -33.459789680765184
        ]
      }
    },
    {
      "type": "Feature",
      "properties": {
        "stop_id": "PA69",
        "stop_name": "PA69-Parada / Teatro Caupolicán"
      },
      "geometry": {
        "type": "Point",
        "coordinates": [
          -70.64965873964437,
          -33.45584144133128
        ]
      }
    },
    {
      "type": "Feature",
      "properties": {
        "stop_id": "PA70",
        "stop_name": "PA70-San Diego / esq. Eyzaguirre"
      },
      "geometry": {
        "type": "Point",
        "coordinates": [
          -70.65004143473129,
          -33.45344534169352
        ]
      }
    },
    {
      "type": "Feature",
      "properties": {
        "stop_id": "PA72",
        "stop_name": "PA72-Parada 2 / (M) Pque. Almagro"
      },
      "geometry": {
        "type": "Point",
        "coordinates": [
          -70.65046359315562,
          -33.45066877635236
        ]
      }
    },
    {
      "type": "Feature",
      "properties": {
        "stop_id": "PA717",
        "stop_name": "PA717-Tarapacá / esq. Zenteno"
      },
      "geometry": {
        "type": "Point",
        "coordinates": [
          -70.65207500023733,
          -33.44753042599692
        ]
      }
    },
    {
      "type": "Feature",
      "properties": {
        "stop_id": "PA212",
        "stop_name": "PA212-Tarapacá / esq. Lord Cochrane"
      },
      "geometry": {
        "type": "Point",
        "coordinates": [
          -70.6540147168291,
          -33.44775571903148
        ]
      }
    },
    {
      "type": "Feature",
      "properties": {
        "stop_id": "PA720",
        "stop_name": "PA720-Lord Cochrane / esq. Alameda"
      },
      "geometry": {
        "type": "Point",
        "coordinates": [
          -70.65530555360205,
          -33.445572099819124
        ]
      }
    },
    {
      "type": "Feature",
      "properties": {
        "stop_id": "PA218",
        "stop_name": "PA218-Hermanos Amunátegui / esq. Moneda"
      },
      "geometry": {
        "type": "Point",
        "coordinates": [
          -70.65597509611646,
          -33.44265047392025
        ]
      }
    },
    {
      "type": "Feature",
      "properties": {
        "stop_id": "PA718",
        "stop_name": "PA718-Hermanos Amunátegui / esq. Catedral"
      },
      "geometry": {
        "type": "Point",
        "coordinates": [
          -70.65675800002172,
          -33.43823400008659
        ]
      }
    },
    {
      "type": "Feature",
      "properties": {
        "stop_id": "PA719",
        "stop_name": "PA719-Hermanos Amunátegui / esq. San Pablo"
      },
      "geometry": {
        "type": "Point",
        "coordinates": [
          -70.65723499988067,
          -33.434875000306555
        ]
      }
    },
    {
      "type": "Feature",
      "properties": {
        "stop_id": "PA87",
        "stop_name": "PA87-Parada 7 / Estación Mapocho"
      },
      "geometry": {
        "type": "Point",
        "coordinates": [
          -70.6523909999285,
          -33.4330060002613
        ]
      }
    },
    {
      "type": "Feature",
      "properties": {
        "stop_id": "PB211",
        "stop_name": "PB211-Parada / Vega Central"
      },
      "geometry": {
        "type": "Point",
        "coordinates": [
          -70.65159600052247,
          -33.43063899988322
        ]
      }
    },
    {
      "type": "Feature",
      "properties": {
        "stop_id": "PB212",
        "stop_name": "PB212-Parada / Terminal Lastra"
      },
      "geometry": {
        "type": "Point",
        "coordinates": [
          -70.65140555205986,
          -33.428859104112725
        ]
      }
    },
    {
      "type": "Feature",
      "properties": {
        "stop_id": "PB587",
        "stop_name": "PB587-Echeverría / esq. Residencial"
      },
      "geometry": {
        "type": "Point",
        "coordinates": [
          -70.65188386600379,
          -33.42497171931482
        ]
      }
    },
    {
      "type": "Feature",
      "properties": {
        "stop_id": "PB214",
        "stop_name": "PB214-Echeverría / esq. Av. Independencia"
      },
      "geometry": {
        "type": "Point",
        "coordinates": [
          -70.65427719804268,
          -33.42511217729579
        ]
      }
    },
    {
      "type": "Feature",
      "properties": {
        "stop_id": "PB1952",
        "stop_name": "PB1952-Parada 5 / Hospital Clínico U. de Chile"
      },
      "geometry": {
        "type": "Point",
        "coordinates": [
          -70.65580509805137,
          -33.42022217775618
        ]
      }
    },
    {
      "type": "Feature",
      "properties": {
        "stop_id": "PB1954",
        "stop_name": "PB1954-Parada 6 / (M) Hospitales"
      },
      "geometry": {
        "type": "Point",
        "coordinates": [
          -70.65647819803553,
          -33.41746847692029
        ]
      }
    },
    {
      "type": "Feature",
      "properties": {
        "stop_id": "PB1956",
        "stop_name": "PB1956-Av. Independencia / esq. Baldomero Lillo"
      },
      "geometry": {
        "type": "Point",
        "coordinates": [
          -70.65734189804532,
          -33.41528617743872
        ]
      }
    },
    {
      "type": "Feature",
      "properties": {
        "stop_id": "PB1959",
        "stop_name": "PB1959-Av. Independencia / esq. General Saavedra"
      },
      "geometry": {
        "type": "Point",
        "coordinates": [
          -70.65971309803633,
          -33.41015907697932
        ]
      }
    },
    {
      "type": "Feature",
      "properties": {
        "stop_id": "PB1963",
        "stop_name": "PB1963-Parada 5 / (M) Pza. Chacabuco"
      },
      "geometry": {
        "type": "Point",
        "coordinates": [
          -70.66162819804305,
          -33.4058829773422
        ]
      }
    },
    {
      "type": "Feature",
      "properties": {
        "stop_id": "PB1966",
        "stop_name": "PB1966-Parada 2 / Einstein - Independencia"
      },
      "geometry": {
        "type": "Point",
        "coordinates": [
          -70.66369749804407,
          -33.403516277414184
        ]
      }
    },
    {
      "type": "Feature",
      "properties": {
        "stop_id": "PB1968",
        "stop_name": "PB1968-Av. Independencia / esq. Huidobro"
      },
      "geometry": {
        "type": "Point",
        "coordinates": [
          -70.66647219803336,
          -33.40058507687762
        ]
      }
    },
    {
      "type": "Feature",
      "properties": {
        "stop_id": "PB279",
        "stop_name": "PB279-Parada 8 / (M) Conchalí"
      },
      "geometry": {
        "type": "Point",
        "coordinates": [
          -70.6701764689312,
          -33.39733869226791
        ]
      }
    },
    {
      "type": "Feature",
      "properties": {
        "stop_id": "PB280",
        "stop_name": "PB280-Av. Independencia / esq. Aviador Acevedo"
      },
      "geometry": {
        "type": "Point",
        "coordinates": [
          -70.67158500047964,
          -33.3959630001931
        ]
      }
    },
    {
      "type": "Feature",
      "properties": {
        "stop_id": "PB281",
        "stop_name": "PB281-Av. Independencia / esq. Teniente Ponce"
      },
      "geometry": {
        "type": "Point",
        "coordinates": [
          -70.6733349999904,
          -33.39351600013678
        ]
      }
    },
    {
      "type": "Feature",
      "properties": {
        "stop_id": "PB227",
        "stop_name": "PB227-Av. Independencia / esq. Elcira Espinoza"
      },
      "geometry": {
        "type": "Point",
        "coordinates": [
          -70.6750890002052,
          -33.39077300000211
        ]
      }
    },
    {
      "type": "Feature",
      "properties": {
        "stop_id": "PB283",
        "stop_name": "PB283-Av. Independencia / esq. Doctor Asenjo"
      },
      "geometry": {
        "type": "Point",
        "coordinates": [
          -70.67712592895039,
          -33.38828832500643
        ]
      }
    },
    {
      "type": "Feature",
      "properties": {
        "stop_id": "PB1708",
        "stop_name": "PB1708-Parada 2 / (M) Vivaceta"
      },
      "geometry": {
        "type": "Point",
        "coordinates": [
          -70.67959572769418,
          -33.385273392088585
        ]
      }
    },
    {
      "type": "Feature",
      "properties": {
        "stop_id": "PB285",
        "stop_name": "PB285-Av. Independencia / esq. Juncal"
      },
      "geometry": {
        "type": "Point",
        "coordinates": [
          -70.68146379971581,
          -33.3831300165806
        ]
      }
    },
    {
      "type": "Feature",
      "properties": {
        "stop_id": "PB286",
        "stop_name": "PB286-Av. Independencia / esq. Uno Sur"
      },
      "geometry": {
        "type": "Point",
        "coordinates": [
          -70.68263784815545,
          -33.38134613069543
        ]
      }
    },
    {
      "type": "Feature",
      "properties": {
        "stop_id": "PB232",
        "stop_name": "PB232-Av. Independencia / esq. Uno norte"
      },
      "geometry": {
        "type": "Point",
        "coordinates": [
          -70.68346000049162,
          -33.3791079997056
        ]
      }
    },
    {
      "type": "Feature",
      "properties": {
        "stop_id": "PB233",
        "stop_name": "PB233-Parada 3 / (M) Cardenal Caro"
      },
      "geometry": {
        "type": "Point",
        "coordinates": [
          -70.6858319997448,
          -33.37449700001444
        ]
      }
    },
    {
      "type": "Feature",
      "properties": {
        "stop_id": "PB234",
        "stop_name": "PB234-Av. Independencia / esq. Barranquilla"
      },
      "geometry": {
        "type": "Point",
        "coordinates": [
          -70.68752899996203,
          -33.371498999938
        ]
      }
    },
    {
      "type": "Feature",
      "properties": {
        "stop_id": "PB290",
        "stop_name": "PB290-Av. Independencia / esq. Asunción"
      },
      "geometry": {
        "type": "Point",
        "coordinates": [
          -70.68848686313379,
          -33.369110900791604
        ]
      }
    },
    {
      "type": "Feature",
      "properties": {
        "stop_id": "PB236",
        "stop_name": "PB236-Parada 2 / (M) Los Libertadores"
      },
      "geometry": {
        "type": "Point",
        "coordinates": [
          -70.6891178935771,
          -33.366840479018784
        ]
      }
    },
    {
      "type": "Feature",
      "properties": {
        "stop_id": "PB237",
        "stop_name": "PB237-Calle 1 / esq. Real Audiencia"
      },
      "geometry": {
        "type": "Point",
        "coordinates": [
          -70.6888765563823,
          -33.36387365682183
        ]
      }
    },
    {
      "type": "Feature",
      "properties": {
        "stop_id": "PB1491",
        "stop_name": "PB1491-San Pedro de Atacama / esq. Lluta"
      },
      "geometry": {
        "type": "Point",
        "coordinates": [
          -70.68956176290243,
          -33.35981189918471
        ]
      }
    },
    {
      "type": "Feature",
      "properties": {
        "stop_id": "PB243",
        "stop_name": "PB243-San Pedro de Atacama / esq. Isluga"
      },
      "geometry": {
        "type": "Point",
        "coordinates": [
          -70.68701099964254,
          -33.360037000332895
        ]
      }
    },
    {
      "type": "Feature",
      "properties": {
        "stop_id": "PB1564",
        "stop_name": "PB1564-San Pedro de Atacama / esq. Lasaña"
      },
      "geometry": {
        "type": "Point",
        "coordinates": [
          -70.6856050001689,
          -33.360187000009695
        ]
      }
    },
    {
      "type": "Feature",
      "properties": {
        "stop_id": "PB1626",
        "stop_name": "PB1626-Mejillones / esq. Pajonales"
      },
      "geometry": {
        "type": "Point",
        "coordinates": [
          -70.68459183193448,
          -33.35923391733053
        ]
      }
    },
    {
      "type": "Feature",
      "properties": {
        "stop_id": "PB240",
        "stop_name": "PB240-Mejillones / esq. Los Libertadores"
      },
      "geometry": {
        "type": "Point",
        "coordinates": [
          -70.68250095443362,
          -33.35943064281904
        ]
      }
    },
    {
      "type": "Feature",
      "properties": {
        "stop_id": "PB1624",
        "stop_name": "PB1624-Parada 1 / Terminal Los Libertadores"
      },
      "geometry": {
        "type": "Point",
        "coordinates": [
          -70.68187600246728,
          -33.361709054296114
        ]
      }
    },
    {
      "type": "Feature",
      "properties": {
        "stop_id": "PB299",
        "stop_name": "PB299-Avenida Recoleta / esq. Industrial"
      },
      "geometry": {
        "type": "Point",
        "coordinates": [
          -70.63957400005404,
          -33.38077799972236
        ]
      }
    },
    {
      "type": "Feature",
      "properties": {
        "stop_id": "PB300",
        "stop_name": "PB300-Avenida Recoleta / esq. Av. A. Vespucio"
      },
      "geometry": {
        "type": "Point",
        "coordinates": [
          -70.64027400018102,
          -33.38247600010831
        ]
      }
    },
    {
      "type": "Feature",
      "properties": {
        "stop_id": "PB1369",
        "stop_name": "PB1369-Avenida Recoleta / esq. Oscar Castro"
      },
      "geometry": {
        "type": "Point",
        "coordinates": [
          -70.64107899998197,
          -33.38457199996302
        ]
      }
    },
    {
      "type": "Feature",
      "properties": {
        "stop_id": "PB301",
        "stop_name": "PB301-Avenida Recoleta / esq. M. Luisa Bombal"
      },
      "geometry": {
        "type": "Point",
        "coordinates": [
          -70.64169399958209,
          -33.386006999624364
        ]
      }
    },
    {
      "type": "Feature",
      "properties": {
        "stop_id": "PB302",
        "stop_name": "PB302-Avenida Recoleta / esq. Alfredo Rosende"
      },
      "geometry": {
        "type": "Point",
        "coordinates": [
          -70.6423639002539,
          -33.38834571666566
        ]
      }
    },
    {
      "type": "Feature",
      "properties": {
        "stop_id": "PB303",
        "stop_name": "PB303-Parada 3 / (M) Zapadores"
      },
      "geometry": {
        "type": "Point",
        "coordinates": [
          -70.64253499974839,
          -33.39150299996352
        ]
      }
    },
    {
      "type": "Feature",
      "properties": {
        "stop_id": "PB304",
        "stop_name": "PB304-Avenida Recoleta / esq. Urmeneta"
      },
      "geometry": {
        "type": "Point",
        "coordinates": [
          -70.64267175388724,
          -33.39330967333718
        ]
      }
    },
    {
      "type": "Feature",
      "properties": {
        "stop_id": "PB305",
        "stop_name": "PB305-Parada 1 / (M) Dorsal"
      },
      "geometry": {
        "type": "Point",
        "coordinates": [
          -70.64280156758772,
          -33.39616874999434
        ]
      }
    },
    {
      "type": "Feature",
      "properties": {
        "stop_id": "PB1728",
        "stop_name": "PB1728-Avenida Recoleta / esq. Emiliano Zapata"
      },
      "geometry": {
        "type": "Point",
        "coordinates": [
          -70.64289099962659,
          -33.399023999574936
        ]
      }
    },
    {
      "type": "Feature",
      "properties": {
        "stop_id": "PB306",
        "stop_name": "PB306-Avenida Recoleta / esq. Muñoz Gamero"
      },
      "geometry": {
        "type": "Point",
        "coordinates": [
          -70.64297799949254,
          -33.40065899981198
        ]
      }
    },
    {
      "type": "Feature",
      "properties": {
        "stop_id": "PB307",
        "stop_name": "PB307-Avenida Recoleta / esq. Diag. José M. Caro"
      },
      "geometry": {
        "type": "Point",
        "coordinates": [
          -70.64310388032153,
          -33.40314123291513
        ]
      }
    },
    {
      "type": "Feature",
      "properties": {
        "stop_id": "PB308",
        "stop_name": "PB308-Parada 1 / (M) Einstein"
      },
      "geometry": {
        "type": "Point",
        "coordinates": [
          -70.64324057113703,
          -33.405414231062394
        ]
      }
    },
    {
      "type": "Feature",
      "properties": {
        "stop_id": "PB309",
        "stop_name": "PB309-Avenida Recoleta / esq. Avenida México"
      },
      "geometry": {
        "type": "Point",
        "coordinates": [
          -70.64337654317787,
          -33.407999125262336
        ]
      }
    },
    {
      "type": "Feature",
      "properties": {
        "stop_id": "PB310",
        "stop_name": "PB310-Avenida Recoleta / esq. Saliano"
      },
      "geometry": {
        "type": "Point",
        "coordinates": [
          -70.6434677621338,
          -33.41054694258425
        ]
      }
    },
    {
      "type": "Feature",
      "properties": {
        "stop_id": "PB311",
        "stop_name": "PB311-Parada 3 / (M) Cementerios"
      },
      "geometry": {
        "type": "Point",
        "coordinates": [
          -70.64369781197499,
          -33.41344097065352
        ]
      }
    },
    {
      "type": "Feature",
      "properties": {
        "stop_id": "PB312",
        "stop_name": "PB312-Avenida Recoleta / esq. Schlack"
      },
      "geometry": {
        "type": "Point",
        "coordinates": [
          -70.64387129863066,
          -33.41718186337051
        ]
      }
    },
    {
      "type": "Feature",
      "properties": {
        "stop_id": "PB313",
        "stop_name": "PB313-Avenida Recoleta / esq. Urrutia"
      },
      "geometry": {
        "type": "Point",
        "coordinates": [
          -70.64405757371416,
          -33.41888854232887
        ]
      }
    },
    {
      "type": "Feature",
      "properties": {
        "stop_id": "PB314",
        "stop_name": "PB314-Parada 1 / (M) Cerro Blanco"
      },
      "geometry": {
        "type": "Point",
        "coordinates": [
          -70.64479335685918,
          -33.421636039900896
        ]
      }
    },
    {
      "type": "Feature",
      "properties": {
        "stop_id": "PB315",
        "stop_name": "PB315-Avenida Recoleta / esq. Olivos"
      },
      "geometry": {
        "type": "Point",
        "coordinates": [
          -70.64576800010524,
          -33.42485600037001
        ]
      }
    },
    {
      "type": "Feature",
      "properties": {
        "stop_id": "PB316",
        "stop_name": "PB316-Parada / Clínica Dávila"
      },
      "geometry": {
        "type": "Point",
        "coordinates": [
          -70.6464098444544,
          -33.42708579538125
        ]
      }
    },
    {
      "type": "Feature",
      "properties": {
        "stop_id": "PB317",
        "stop_name": "PB317-Parada / (M) Patronato"
      },
      "geometry": {
        "type": "Point",
        "coordinates": [
          -70.64707399978059,
          -33.42931399980135
        ]
      }
    },
    {
      "type": "Feature",
      "properties": {
        "stop_id": "PB318",
        "stop_name": "PB318-Parada 3 / Recoleta Franciscana"
      },
      "geometry": {
        "type": "Point",
        "coordinates": [
          -70.64795478204178,
          -33.43157270796656
        ]
      }
    },
    {
      "type": "Feature",
      "properties": {
        "stop_id": "PA88",
        "stop_name": "PA88-Parada 7 / Mercado Central"
      },
      "geometry": {
        "type": "Point",
        "coordinates": [
          -70.6489858508969,
          -33.43365309086708
        ]
      }
    },
    {
      "type": "Feature",
      "properties": {
        "stop_id": "PA195",
        "stop_name": "PA195-Parada 1 / Monjitas - San Antonio"
      },
      "geometry": {
        "type": "Point",
        "coordinates": [
          -70.64866000410932,
          -33.436683365726886
        ]
      }
    },
    {
      "type": "Feature",
      "properties": {
        "stop_id": "PA763",
        "stop_name": "PA763-Parada 2 / Teatro Municipal"
      },
      "geometry": {
        "type": "Point",
        "coordinates": [
          -70.64831083883499,
          -33.4388267798366
        ]
      }
    },
    {
      "type": "Feature",
      "properties": {
        "stop_id": "PA91",
        "stop_name": "PA91-Parada 11 / (M) Santa Lucía"
      },
      "geometry": {
        "type": "Point",
        "coordinates": [
          -70.64788253785667,
          -33.44196538416497
        ]
      }
    },
    {
      "type": "Feature",
      "properties": {
        "stop_id": "PA92",
        "stop_name": "PA92-Parada 1 / Alonso de Ovalle - San Francisco"
      },
      "geometry": {
        "type": "Point",
        "coordinates": [
          -70.64713142913843,
          -33.445212258616195
        ]
      }
    },
    {
      "type": "Feature",
      "properties": {
        "stop_id": "PA93",
        "stop_name": "PA93-Parada 3 / Santa Isabel - San Francisco"
      },
      "geometry": {
        "type": "Point",
        "coordinates": [
          -70.6469233848652,
          -33.45056985538562
        ]
      }
    },
    {
      "type": "Feature",
      "properties": {
        "stop_id": "PA94",
        "stop_name": "PA94-Parada 3 / Diez de Julio - San Francisco"
      },
      "geometry": {
        "type": "Point",
        "coordinates": [
          -70.64660362928866,
          -33.45326701821885
        ]
      }
    },
    {
      "type": "Feature",
      "properties": {
        "stop_id": "PA95",
        "stop_name": "PA95-Parada 9 / (M) Matta"
      },
      "geometry": {
        "type": "Point",
        "coordinates": [
          -70.6456529995464,
          -33.457662999728804
        ]
      }
    },
    {
      "type": "Feature",
      "properties": {
        "stop_id": "PA96",
        "stop_name": "PA96-Parada 3 / Hospital Sn. Borja Arriarán"
      },
      "geometry": {
        "type": "Point",
        "coordinates": [
          -70.64504849126862,
          -33.460698614084386
        ]
      }
    },
    {
      "type": "Feature",
      "properties": {
        "stop_id": "PA97",
        "stop_name": "PA97-Parada 3 / Victoria - San Francisco"
      },
      "geometry": {
        "type": "Point",
        "coordinates": [
          -70.64464495103199,
          -33.46421435492159
        ]
      }
    },
    {
      "type": "Feature",
      "properties": {
        "stop_id": "PA98",
        "stop_name": "PA98-Parada 3 / Ñuble - San Francisco"
      },
      "geometry": {
        "type": "Point",
        "coordinates": [
          -70.64405899970394,
          -33.469094000120194
        ]
      }
    },
    {
      "type": "Feature",
      "properties": {
        "stop_id": "PA99",
        "stop_name": "PA99-Parada 3 / Matadero Franklin"
      },
      "geometry": {
        "type": "Point",
        "coordinates": [
          -70.6438841815744,
          -33.472264048798564
        ]
      }
    },
    {
      "type": "Feature",
      "properties": {
        "stop_id": "PA819",
        "stop_name": "PA819-San Francisco / esq. Placer"
      },
      "geometry": {
        "type": "Point",
        "coordinates": [
          -70.64381835794235,
          -33.475160069846844
        ]
      }
    },
    {
      "type": "Feature",
      "properties": {
        "stop_id": "PH138",
        "stop_name": "PH138-Parada 1 / (M) Bío Bío"
      },
      "geometry": {
        "type": "Point",
        "coordinates": [
          -70.6419689691773,
          -33.47831235439676
        ]
      }
    },
    {
      "type": "Feature",
      "properties": {
        "stop_id": "PH139",
        "stop_name": "PH139-Parada 3 / Paradero 3 Santa Rosa"
      },
      "geometry": {
        "type": "Point",
        "coordinates": [
          -70.64181300007625,
          -33.48060900009216
        ]
      }
    },
    {
      "type": "Feature",
      "properties": {
        "stop_id": "PH140",
        "stop_name": "PH140-Parada 3 / Hospital Trudeau"
      },
      "geometry": {
        "type": "Point",
        "coordinates": [
          -70.64143190551553,
          -33.48388898612094
        ]
      }
    },
    {
      "type": "Feature",
      "properties": {
        "stop_id": "PH141",
        "stop_name": "PH141-Parada 3 / Paradero 6 Santa Rosa"
      },
      "geometry": {
        "type": "Point",
        "coordinates": [
          -70.6409040004227,
          -33.48774700043355
        ]
      }
    },
    {
      "type": "Feature",
      "properties": {
        "stop_id": "PH142",
        "stop_name": "PH142-Parada 3 / Paradero 8 Santa Rosa"
      },
      "geometry": {
        "type": "Point",
        "coordinates": [
          -70.64037500016484,
          -33.4917950004384
        ]
      }
    },
    {
      "type": "Feature",
      "properties": {
        "stop_id": "PH143",
        "stop_name": "PH143-Parada 3 / Paradero 9 Santa Rosa"
      },
      "geometry": {
        "type": "Point",
        "coordinates": [
          -70.6399300003283,
          -33.494910000326854
        ]
      }
    },
    {
      "type": "Feature",
      "properties": {
        "stop_id": "PH144",
        "stop_name": "PH144-Parada 3 / Paradero 9 1/2 Santa Rosa"
      },
      "geometry": {
        "type": "Point",
        "coordinates": [
          -70.63963399975115,
          -33.497482999572995
        ]
      }
    },
    {
      "type": "Feature",
      "properties": {
        "stop_id": "PH145",
        "stop_name": "PH145-Parada 3 / Paradero 11 Santa Rosa"
      },
      "geometry": {
        "type": "Point",
        "coordinates": [
          -70.6391520000367,
          -33.50221800040511
        ]
      }
    },
    {
      "type": "Feature",
      "properties": {
        "stop_id": "PH146",
        "stop_name": "PH146-Parada 7 / Departamental - Santa Rosa"
      },
      "geometry": {
        "type": "Point",
        "coordinates": [
          -70.63871000031126,
          -33.50660099999915
        ]
      }
    },
    {
      "type": "Feature",
      "properties": {
        "stop_id": "PH147",
        "stop_name": "PH147-Parada 1 / Paradero 13 Santa Rosa"
      },
      "geometry": {
        "type": "Point",
        "coordinates": [
          -70.63784800039873,
          -33.51075899994545
        ]
      }
    },
    {
      "type": "Feature",
      "properties": {
        "stop_id": "PH148",
        "stop_name": "PH148-Parada 1 / Paradero 14 Santa Rosa"
      },
      "geometry": {
        "type": "Point",
        "coordinates": [
          -70.6372430000641,
          -33.51375399967284
        ]
      }
    },
    {
      "type": "Feature",
      "properties": {
        "stop_id": "PH149",
        "stop_name": "PH149-Parada 1 / Paradero 16 Santa Rosa"
      },
      "geometry": {
        "type": "Point",
        "coordinates": [
          -70.63679399987772,
          -33.517744000254865
        ]
      }
    },
    {
      "type": "Feature",
      "properties": {
        "stop_id": "PG90",
        "stop_name": "PG90-Parada 3 / Paradero 18 Santa Rosa"
      },
      "geometry": {
        "type": "Point",
        "coordinates": [
          -70.63632500003071,
          -33.522333000024894
        ]
      }
    },
    {
      "type": "Feature",
      "properties": {
        "stop_id": "PG91",
        "stop_name": "PG91-Parada 1 / Paradero 19 Santa Rosa"
      },
      "geometry": {
        "type": "Point",
        "coordinates": [
          -70.63590499971446,
          -33.52598199970417
        ]
      }
    },
    {
      "type": "Feature",
      "properties": {
        "stop_id": "PG92",
        "stop_name": "PG92-Parada 1 / Paradero 21 Santa Rosa"
      },
      "geometry": {
        "type": "Point",
        "coordinates": [
          -70.63534700000444,
          -33.529897000126354
        ]
      }
    },
    {
      "type": "Feature",
      "properties": {
        "stop_id": "PG93",
        "stop_name": "PG93-Parada 1 / Paradero 22 Santa Rosa"
      },
      "geometry": {
        "type": "Point",
        "coordinates": [
          -70.63476499973257,
          -33.53367699960986
        ]
      }
    },
    {
      "type": "Feature",
      "properties": {
        "stop_id": "PG94",
        "stop_name": "PG94-Parada 1 / Paradero 23 Santa Rosa"
      },
      "geometry": {
        "type": "Point",
        "coordinates": [
          -70.63448893531219,
          -33.53853355787442
        ]
      }
    },
    {
      "type": "Feature",
      "properties": {
        "stop_id": "PG116",
        "stop_name": "PG116-Parada 8 / (M) Santa Rosa"
      },
      "geometry": {
        "type": "Point",
        "coordinates": [
          -70.63424199990938,
          -33.54185699963867
        ]
      }
    },
    {
      "type": "Feature",
      "properties": {
        "stop_id": "PG254",
        "stop_name": "PG254-Parada 1 / Paradero 26 Santa Rosa"
      },
      "geometry": {
        "type": "Point",
        "coordinates": [
          -70.63365199990899,
          -33.54591100041917
        ]
      }
    },
    {
      "type": "Feature",
      "properties": {
        "stop_id": "PE1294",
        "stop_name": "PE1294-Parada 3 / Paradero 28 Santa Rosa"
      },
      "geometry": {
        "type": "Point",
        "coordinates": [
          -70.6328120001407,
          -33.55021000002784
        ]
      }
    },
    {
      "type": "Feature",
      "properties": {
        "stop_id": "PG97",
        "stop_name": "PG97-Parada 3 / Hospital Padre Hurtado"
      },
      "geometry": {
        "type": "Point",
        "coordinates": [
          -70.63211299963245,
          -33.553427000322195
        ]
      }
    },
    {
      "type": "Feature",
      "properties": {
        "stop_id": "PG1611",
        "stop_name": "PG1611-Parada 5 / Paradero 30 Santa Rosa"
      },
      "geometry": {
        "type": "Point",
        "coordinates": [
          -70.63126420053098,
          -33.55781837852971
        ]
      }
    },
    {
      "type": "Feature",
      "properties": {
        "stop_id": "PG1617",
        "stop_name": "PG1617-Parada 6 / Santo Tomás - Santa Rosa"
      },
      "geometry": {
        "type": "Point",
        "coordinates": [
          -70.63075691955997,
          -33.56038771320423
        ]
      }
    },
    {
      "type": "Feature",
      "properties": {
        "stop_id": "PG1464",
        "stop_name": "PG1464-Violeta Parra / esq. El Bosque"
      },
      "geometry": {
        "type": "Point",
        "coordinates": [
          -70.63423500001906,
          -33.5610880000211
        ]
      }
    },
    {
      "type": "Feature",
      "properties": {
        "stop_id": "PG100",
        "stop_name": "PG100-Violeta Parra / esq. P. Aguirre Cerda"
      },
      "geometry": {
        "type": "Point",
        "coordinates": [
          -70.63796099998049,
          -33.56092699992887
        ]
      }
    },
    {
      "type": "Feature",
      "properties": {
        "stop_id": "PG101",
        "stop_name": "PG101-Violeta Parra / esq. Santa Pilar"
      },
      "geometry": {
        "type": "Point",
        "coordinates": [
          -70.64034450727539,
          -33.56082569571736
        ]
      }
    },
    {
      "type": "Feature",
      "properties": {
        "stop_id": "PG102",
        "stop_name": "PG102-Violeta Parra / esq. Los Almendros"
      },
      "geometry": {
        "type": "Point",
        "coordinates": [
          -70.64419099950797,
          -33.56054099992584
        ]
      }
    },
    {
      "type": "Feature",
      "properties": {
        "stop_id": "PG103",
        "stop_name": "PG103-Violeta Parra / esq. A. Latorre"
      },
      "geometry": {
        "type": "Point",
        "coordinates": [
          -70.64615000017992,
          -33.5604020000732
        ]
      }
    },
    {
      "type": "Feature",
      "properties": {
        "stop_id": "PG1129",
        "stop_name": "PG1129-Violeta Parra / esq. Av. La Bandera"
      },
      "geometry": {
        "type": "Point",
        "coordinates": [
          -70.64808887833914,
          -33.56029956306752
        ]
      }
    },
    {
      "type": "Feature",
      "properties": {
        "stop_id": "PG1130",
        "stop_name": "PG1130-Violeta Parra / esq. Isabel de Hungría"
      },
      "geometry": {
        "type": "Point",
        "coordinates": [
          -70.65019999963086,
          -33.56018700039615
        ]
      }
    },
    {
      "type": "Feature",
      "properties": {
        "stop_id": "PG1131",
        "stop_name": "PG1131-Violeta Parra / esq. San Manuel"
      },
      "geometry": {
        "type": "Point",
        "coordinates": [
          -70.65276690483745,
          -33.55997778331209
        ]
      }
    },
    {
      "type": "Feature",
      "properties": {
        "stop_id": "PG1132",
        "stop_name": "PG1132-Violeta Parra / esq. Av. San Francisco"
      },
      "geometry": {
        "type": "Point",
        "coordinates": [
          -70.65585700034333,
          -33.55975499972792
        ]
      }
    },
    {
      "type": "Feature",
      "properties": {
        "stop_id": "PG301",
        "stop_name": "PG301-Av. San Francisco / esq. Los Peucos"
      },
      "geometry": {
        "type": "Point",
        "coordinates": [
          -70.65678700041829,
          -33.56183999979004
        ]
      }
    },
    {
      "type": "Feature",
      "properties": {
        "stop_id": "PG1267",
        "stop_name": "PG1267-Av. Observatorio / esq. Las Araucarias"
      },
      "geometry": {
        "type": "Point",
        "coordinates": [
          -70.65827300035313,
          -33.56213900043031
        ]
      }
    },
    {
      "type": "Feature",
      "properties": {
        "stop_id": "PG1268",
        "stop_name": "PG1268-Av. Observatorio / esq. Julio Covarrubias"
      },
      "geometry": {
        "type": "Point",
        "coordinates": [
          -70.66197700023,
          -33.56154900007015
        ]
      }
    },
    {
      "type": "Feature",
      "properties": {
        "stop_id": "PG1269",
        "stop_name": "PG1269-Av. Observatorio / esq. Los Avellanos"
      },
      "geometry": {
        "type": "Point",
        "coordinates": [
          -70.66425600020116,
          -33.5611800000903
        ]
      }
    },
    {
      "type": "Feature",
      "properties": {
        "stop_id": "PG1673",
        "stop_name": "PG1673-Los Raulíes / esq. Antonio varas"
      },
      "geometry": {
        "type": "Point",
        "coordinates": [
          -70.66564558448701,
          -33.56284118456905
        ]
      }
    },
    {
      "type": "Feature",
      "properties": {
        "stop_id": "PG572",
        "stop_name": "PG572-Los Raulíes / esq. Santa Elena"
      },
      "geometry": {
        "type": "Point",
        "coordinates": [
          -70.66626048182398,
          -33.56541329370202
        ]
      }
    },
    {
      "type": "Feature",
      "properties": {
        "stop_id": "PG573",
        "stop_name": "PG573-Los Raulíes / esq. El Conquistador"
      },
      "geometry": {
        "type": "Point",
        "coordinates": [
          -70.66671699992352,
          -33.56720500018665
        ]
      }
    },
    {
      "type": "Feature",
      "properties": {
        "stop_id": "PG574",
        "stop_name": "PG574-Los Raulíes / esq. El Libertador"
      },
      "geometry": {
        "type": "Point",
        "coordinates": [
          -70.66740095477624,
          -33.569717834760034
        ]
      }
    },
    {
      "type": "Feature",
      "properties": {
        "stop_id": "PG575",
        "stop_name": "PG575-Los Raulíes / esq. Lo Martínez"
      },
      "geometry": {
        "type": "Point",
        "coordinates": [
          -70.66805247945287,
          -33.57221774086006
        ]
      }
    },
    {
      "type": "Feature",
      "properties": {
        "stop_id": "PG576",
        "stop_name": "PG576-Parada / CESFAM Haydée López"
      },
      "geometry": {
        "type": "Point",
        "coordinates": [
          -70.66705995236512,
          -33.572581041129
        ]
      }
    },
    {
      "type": "Feature",
      "properties": {
        "stop_id": "PG577",
        "stop_name": "PG577-Lo Martínez / esq. Los Minbres"
      },
      "geometry": {
        "type": "Point",
        "coordinates": [
          -70.66487099990508,
          -33.57297600018399
        ]
      }
    },
    {
      "type": "Feature",
      "properties": {
        "stop_id": "PG578",
        "stop_name": "PG578-Lo Martínez / esq. San Francisco"
      },
      "geometry": {
        "type": "Point",
        "coordinates": [
          -70.66039599949157,
          -33.57375800037027
        ]
      }
    },
    {
      "type": "Feature",
      "properties": {
        "stop_id": "PG150",
        "stop_name": "PG150-Av. San Francisco / esq. General Carvajal"
      },
      "geometry": {
        "type": "Point",
        "coordinates": [
          -70.66071672504728,
          -33.57557805702625
        ]
      }
    },
    {
      "type": "Feature",
      "properties": {
        "stop_id": "PG151",
        "stop_name": "PG151-Av. San Francisco / esq. San Clemente"
      },
      "geometry": {
        "type": "Point",
        "coordinates": [
          -70.6613654203393,
          -33.57801276766026
        ]
      }
    },
    {
      "type": "Feature",
      "properties": {
        "stop_id": "PG152",
        "stop_name": "PG152-Av. San Francisco / esq. Sargento Rebolledo"
      },
      "geometry": {
        "type": "Point",
        "coordinates": [
          -70.66190159099871,
          -33.57995403278282
        ]
      }
    },
    {
      "type": "Feature",
      "properties": {
        "stop_id": "PG153",
        "stop_name": "PG153-Av. San Francisco / esq. Vecinar Sur"
      },
      "geometry": {
        "type": "Point",
        "coordinates": [
          -70.66243399963301,
          -33.581911999687975
        ]
      }
    },
    {
      "type": "Feature",
      "properties": {
        "stop_id": "PG1761",
        "stop_name": "PG1761-Av. San Francisco / esq. Las Parcelas"
      },
      "geometry": {
        "type": "Point",
        "coordinates": [
          -70.6628559995393,
          -33.583476999866335
        ]
      }
    },
    {
      "type": "Feature",
      "properties": {
        "stop_id": "PG1757",
        "stop_name": "PG1757-Avenida Lo Blanco / esq. V. Pérez Rosales"
      },
      "geometry": {
        "type": "Point",
        "coordinates": [
          -70.66265899962124,
          -33.585265000068894
        ]
      }
    },
    {
      "type": "Feature",
      "properties": {
        "stop_id": "PG1756",
        "stop_name": "PG1756-Avenida Lo Blanco / esq. Tte. L. Cruz Martínez"
      },
      "geometry": {
        "type": "Point",
        "coordinates": [
          -70.66096799998151,
          -33.58549500023813
        ]
      }
    },
    {
      "type": "Feature",
      "properties": {
        "stop_id": "PG1779",
        "stop_name": "PG1779-Tucapel / esq. Av. San Francisco"
      },
      "geometry": {
        "type": "Point",
        "coordinates": [
          -70.66353300047874,
          -33.5869990002309
        ]
      }
    },
    {
      "type": "Feature",
      "properties": {
        "stop_id": "PG950",
        "stop_name": "PG950-Av. San Francisco / esq. Avenida Lo Blanco"
      },
      "geometry": {
        "type": "Point",
        "coordinates": [
          -70.66329799962287,
          -33.58544799997009
        ]
      }
    },
    {
      "type": "Feature",
      "properties": {
        "stop_id": "PG233",
        "stop_name": "PG233-Av. San Francisco / esq. Julio Barrenechea"
      },
      "geometry": {
        "type": "Point",
        "coordinates": [
          -70.66246400005514,
          -33.5826429998505
        ]
      }
    },
    {
      "type": "Feature",
      "properties": {
        "stop_id": "PG159",
        "stop_name": "PG159-Av. San Francisco / esq. Sgto. D. Rebolledo"
      },
      "geometry": {
        "type": "Point",
        "coordinates": [
          -70.66183199951026,
          -33.58035199982616
        ]
      }
    },
    {
      "type": "Feature",
      "properties": {
        "stop_id": "PG160",
        "stop_name": "PG160-Av. San Francisco / esq. Bernardino Parada"
      },
      "geometry": {
        "type": "Point",
        "coordinates": [
          -70.66102299950724,
          -33.577362000334915
        ]
      }
    },
    {
      "type": "Feature",
      "properties": {
        "stop_id": "PG161",
        "stop_name": "PG161-Av. San Francisco / esq. Río Loa"
      },
      "geometry": {
        "type": "Point",
        "coordinates": [
          -70.66056500050219,
          -33.575553000360095
        ]
      }
    },
    {
      "type": "Feature",
      "properties": {
        "stop_id": "PG628",
        "stop_name": "PG628-Lo Martínez / esq. Los Andes"
      },
      "geometry": {
        "type": "Point",
        "coordinates": [
          -70.66306769268607,
          -33.573174202843184
        ]
      }
    },
    {
      "type": "Feature",
      "properties": {
        "stop_id": "PG629",
        "stop_name": "PG629-Parada / CESFAM Haydée López"
      },
      "geometry": {
        "type": "Point",
        "coordinates": [
          -70.66697697596466,
          -33.57249775452718
        ]
      }
    },
    {
      "type": "Feature",
      "properties": {
        "stop_id": "PG630",
        "stop_name": "PG630-Los Raulíes / esq. El Libertador"
      },
      "geometry": {
        "type": "Point",
        "coordinates": [
          -70.66737599992904,
          -33.57012100029091
        ]
      }
    },
    {
      "type": "Feature",
      "properties": {
        "stop_id": "PG631",
        "stop_name": "PG631-Los Raulíes / esq. Los Avellanos"
      },
      "geometry": {
        "type": "Point",
        "coordinates": [
          -70.66691388652949,
          -33.568383209784166
        ]
      }
    },
    {
      "type": "Feature",
      "properties": {
        "stop_id": "PG632",
        "stop_name": "PG632-Los Raulíes / esq. Santa Elena"
      },
      "geometry": {
        "type": "Point",
        "coordinates": [
          -70.66616400031218,
          -33.565441000323176
        ]
      }
    },
    {
      "type": "Feature",
      "properties": {
        "stop_id": "PG633",
        "stop_name": "PG633-Los Raulíes / esq. Antonio varas"
      },
      "geometry": {
        "type": "Point",
        "coordinates": [
          -70.66565899972825,
          -33.56325700021863
        ]
      }
    },
    {
      "type": "Feature",
      "properties": {
        "stop_id": "PG634",
        "stop_name": "PG634-Los Raulíes / esq. Av. Observatorio"
      },
      "geometry": {
        "type": "Point",
        "coordinates": [
          -70.66522899953223,
          -33.56133599989864
        ]
      }
    },
    {
      "type": "Feature",
      "properties": {
        "stop_id": "PG635",
        "stop_name": "PG635-Av. Observatorio / esq. Los Avellanos"
      },
      "geometry": {
        "type": "Point",
        "coordinates": [
          -70.66464999954677,
          -33.561231000126384
        ]
      }
    },
    {
      "type": "Feature",
      "properties": {
        "stop_id": "PG636",
        "stop_name": "PG636-Av. Observatorio / esq. Los Mimbres"
      },
      "geometry": {
        "type": "Point",
        "coordinates": [
          -70.66239000041095,
          -33.56158599957122
        ]
      }
    },
    {
      "type": "Feature",
      "properties": {
        "stop_id": "PG1239",
        "stop_name": "PG1239-Av. Observatorio / esq. Los Pinares"
      },
      "geometry": {
        "type": "Point",
        "coordinates": [
          -70.65935000032663,
          -33.56209199963993
        ]
      }
    },
    {
      "type": "Feature",
      "properties": {
        "stop_id": "PG1240",
        "stop_name": "PG1240-Av. Observatorio / esq. San Francisco"
      },
      "geometry": {
        "type": "Point",
        "coordinates": [
          -70.65712226846232,
          -33.56245410377983
        ]
      }
    },
    {
      "type": "Feature",
      "properties": {
        "stop_id": "PG312",
        "stop_name": "PG312-Av. San Francisco / esq. Los Gorriones"
      },
      "geometry": {
        "type": "Point",
        "coordinates": [
          -70.65666499956124,
          -33.56208799981666
        ]
      }
    },
    {
      "type": "Feature",
      "properties": {
        "stop_id": "PG313",
        "stop_name": "PG313-Av. San Francisco / esq. Violeta Parra"
      },
      "geometry": {
        "type": "Point",
        "coordinates": [
          -70.6561609997398,
          -33.55997600012069
        ]
      }
    },
    {
      "type": "Feature",
      "properties": {
        "stop_id": "PG1083",
        "stop_name": "PG1083-Violeta Parra / esq. Las Bandurrias"
      },
      "geometry": {
        "type": "Point",
        "coordinates": [
          -70.65253200048691,
          -33.560092000434466
        ]
      }
    },
    {
      "type": "Feature",
      "properties": {
        "stop_id": "PG1084",
        "stop_name": "PG1084-Violeta Parra / esq. Fco. de Goya"
      },
      "geometry": {
        "type": "Point",
        "coordinates": [
          -70.6500800002066,
          -33.56029500038695
        ]
      }
    },
    {
      "type": "Feature",
      "properties": {
        "stop_id": "PG1085",
        "stop_name": "PG1085-Violeta Parra / esq. Av. La Bandera"
      },
      "geometry": {
        "type": "Point",
        "coordinates": [
          -70.6484590000929,
          -33.56037500040384
        ]
      }
    },
    {
      "type": "Feature",
      "properties": {
        "stop_id": "PG334",
        "stop_name": "PG334-Violeta Parra / esq. A. Latorre"
      },
      "geometry": {
        "type": "Point",
        "coordinates": [
          -70.64658419540358,
          -33.56047507755555
        ]
      }
    },
    {
      "type": "Feature",
      "properties": {
        "stop_id": "PG104",
        "stop_name": "PG104-Almirante Latorre / esq. Celanova"
      },
      "geometry": {
        "type": "Point",
        "coordinates": [
          -70.64609444239592,
          -33.55931376576524
        ]
      }
    },
    {
      "type": "Feature",
      "properties": {
        "stop_id": "PG105",
        "stop_name": "PG105-Almirante Latorre / esq. Venancia Leiva"
      },
      "geometry": {
        "type": "Point",
        "coordinates": [
          -70.64548709549553,
          -33.55648877050287
        ]
      }
    },
    {
      "type": "Feature",
      "properties": {
        "stop_id": "PG106",
        "stop_name": "PG106-Venancia Leiva / esq. El Nogal"
      },
      "geometry": {
        "type": "Point",
        "coordinates": [
          -70.64204000039345,
          -33.556886000181784
        ]
      }
    },
    {
      "type": "Feature",
      "properties": {
        "stop_id": "PG2007",
        "stop_name": "PG2007-Venancia Leiva / esq. Cantares"
      },
      "geometry": {
        "type": "Point",
        "coordinates": [
          -70.6398606458246,
          -33.55717897374936
        ]
      }
    },
    {
      "type": "Feature",
      "properties": {
        "stop_id": "PG107",
        "stop_name": "PG107-Venancia Leiva / esq. P. Aguirre Cerda"
      },
      "geometry": {
        "type": "Point",
        "coordinates": [
          -70.63777775230665,
          -33.55745110941891
        ]
      }
    },
    {
      "type": "Feature",
      "properties": {
        "stop_id": "PG108",
        "stop_name": "PG108-Venancia Leiva / esq. La Pradera"
      },
      "geometry": {
        "type": "Point",
        "coordinates": [
          -70.63602800035576,
          -33.55770300006598
        ]
      }
    },
    {
      "type": "Feature",
      "properties": {
        "stop_id": "PG109",
        "stop_name": "PG109-Venancia Leiva / esq. El Bosque"
      },
      "geometry": {
        "type": "Point",
        "coordinates": [
          -70.63435399975872,
          -33.55792900015682
        ]
      }
    },
    {
      "type": "Feature",
      "properties": {
        "stop_id": "PG110",
        "stop_name": "PG110-Venancia Leiva / esq. Av. Santa Rosa"
      },
      "geometry": {
        "type": "Point",
        "coordinates": [
          -70.63303699951597,
          -33.55811200030289
        ]
      }
    },
    {
      "type": "Feature",
      "properties": {
        "stop_id": "PE63",
        "stop_name": "PE63-Parada 2 / Paradero 30 Santa Rosa"
      },
      "geometry": {
        "type": "Point",
        "coordinates": [
          -70.63131485761748,
          -33.55634032289746
        ]
      }
    },
    {
      "type": "Feature",
      "properties": {
        "stop_id": "PE71",
        "stop_name": "PE71-Parada 2 / Hospital Padre Hurtado"
      },
      "geometry": {
        "type": "Point",
        "coordinates": [
          -70.63204386969785,
          -33.55303608901752
        ]
      }
    },
    {
      "type": "Feature",
      "properties": {
        "stop_id": "PE112",
        "stop_name": "PE112-Parada 2 / Paradero 28 Santa Rosa"
      },
      "geometry": {
        "type": "Point",
        "coordinates": [
          -70.63276600000952,
          -33.54972900011415
        ]
      }
    },
    {
      "type": "Feature",
      "properties": {
        "stop_id": "PE113",
        "stop_name": "PE113-Parada 2 / Paradero 26 Santa Rosa"
      },
      "geometry": {
        "type": "Point",
        "coordinates": [
          -70.633575064778,
          -33.54559603877874
        ]
      }
    },
    {
      "type": "Feature",
      "properties": {
        "stop_id": "PE114",
        "stop_name": "PE114-Parada 4 / (M) Santa Rosa"
      },
      "geometry": {
        "type": "Point",
        "coordinates": [
          -70.63397593360176,
          -33.5431304548639
        ]
      }
    },
    {
      "type": "Feature",
      "properties": {
        "stop_id": "PE66",
        "stop_name": "PE66-Parada 4 / Paradero 23 Santa Rosa"
      },
      "geometry": {
        "type": "Point",
        "coordinates": [
          -70.63434928253909,
          -33.53791748292593
        ]
      }
    },
    {
      "type": "Feature",
      "properties": {
        "stop_id": "PE67",
        "stop_name": "PE67-Parada 2 / Paradero 22 Santa Rosa"
      },
      "geometry": {
        "type": "Point",
        "coordinates": [
          -70.6345409996429,
          -33.533878999562084
        ]
      }
    },
    {
      "type": "Feature",
      "properties": {
        "stop_id": "PE68",
        "stop_name": "PE68-Parada 4 / Paradero 20 Santa Rosa"
      },
      "geometry": {
        "type": "Point",
        "coordinates": [
          -70.63531588989193,
          -33.529177170710994
        ]
      }
    },
    {
      "type": "Feature",
      "properties": {
        "stop_id": "PE69",
        "stop_name": "PE69-Parada 4 / Paradero 19 Santa Rosa"
      },
      "geometry": {
        "type": "Point",
        "coordinates": [
          -70.63567299972662,
          -33.52626799966652
        ]
      }
    },
    {
      "type": "Feature",
      "properties": {
        "stop_id": "PE70",
        "stop_name": "PE70-Parada 4 / Paradero 18 Santa Rosa"
      },
      "geometry": {
        "type": "Point",
        "coordinates": [
          -70.63618600051923,
          -33.521632999993805
        ]
      }
    },
    {
      "type": "Feature",
      "properties": {
        "stop_id": "PH150",
        "stop_name": "PH150-Parada 4 / Paradero 16 Santa Rosa"
      },
      "geometry": {
        "type": "Point",
        "coordinates": [
          -70.63668199968026,
          -33.517336000155765
        ]
      }
    },
    {
      "type": "Feature",
      "properties": {
        "stop_id": "PH151",
        "stop_name": "PH151-Parada 4 / Paradero 14 Santa Rosa"
      },
      "geometry": {
        "type": "Point",
        "coordinates": [
          -70.63713100049134,
          -33.513360000409136
        ]
      }
    },
    {
      "type": "Feature",
      "properties": {
        "stop_id": "PH152",
        "stop_name": "PH152-Parada 4 / Paradero 13 Santa Rosa"
      },
      "geometry": {
        "type": "Point",
        "coordinates": [
          -70.63777000006976,
          -33.51037700015993
        ]
      }
    },
    {
      "type": "Feature",
      "properties": {
        "stop_id": "PH153",
        "stop_name": "PH153-Parada 1 / Departamental - Santa Rosa"
      },
      "geometry": {
        "type": "Point",
        "coordinates": [
          -70.63855395295772,
          -33.5065295292174
        ]
      }
    },
    {
      "type": "Feature",
      "properties": {
        "stop_id": "PH154",
        "stop_name": "PH154-Parada 2 / Paradero 11 Santa Rosa"
      },
      "geometry": {
        "type": "Point",
        "coordinates": [
          -70.63900490512299,
          -33.50182954370858
        ]
      }
    },
    {
      "type": "Feature",
      "properties": {
        "stop_id": "PH155",
        "stop_name": "PH155-Parada 2 / Paradero 9 1/2 Santa Rosa"
      },
      "geometry": {
        "type": "Point",
        "coordinates": [
          -70.63950700040859,
          -33.497104999757966
        ]
      }
    },
    {
      "type": "Feature",
      "properties": {
        "stop_id": "PH156",
        "stop_name": "PH156-Parada 2 / Paradero 9 Santa Rosa"
      },
      "geometry": {
        "type": "Point",
        "coordinates": [
          -70.63981604534047,
          -33.49458287550993
        ]
      }
    },
    {
      "type": "Feature",
      "properties": {
        "stop_id": "PH157",
        "stop_name": "PH157-Parada 2 / Paradero 8 Santa Rosa"
      },
      "geometry": {
        "type": "Point",
        "coordinates": [
          -70.64026599993919,
          -33.491378999829536
        ]
      }
    },
    {
      "type": "Feature",
      "properties": {
        "stop_id": "PH158",
        "stop_name": "PH158-Parada 4 / Paradero 6 Santa Rosa"
      },
      "geometry": {
        "type": "Point",
        "coordinates": [
          -70.64078721679714,
          -33.48741407694111
        ]
      }
    },
    {
      "type": "Feature",
      "properties": {
        "stop_id": "PH159",
        "stop_name": "PH159-Parada 2 / Hospital Trudeau"
      },
      "geometry": {
        "type": "Point",
        "coordinates": [
          -70.641311504621,
          -33.48352162694259
        ]
      }
    },
    {
      "type": "Feature",
      "properties": {
        "stop_id": "PH160",
        "stop_name": "PH160-Parada 2 / Paradero 3 Santa Rosa"
      },